City_ID,City,Lat,Lng,Max Temp,Humidity,Cloudiness,Wind Speed,Country,Date
0,port-aux-francais,-49.35,70.2167,6.17,77,66,8.67,TF,1741123286
1,tolanaro,-25.0319,46.9987,26.04,94,75,1.03,MG,1741123287
2,guerrero negro,27.9769,-114.0611,20.44,36,17,4.73,MX,1741123288
3,yellowknife,62.456,-114.3525,-9.21,95,100,2.06,CA,1741123290
4,klyuchi,52.2667,79.1667,-7.71,96,100,3.23,RU,1741123095
5,blackmans bay,-43.0167,147.3167,16.07,75,0,3.39,AU,1741123293
6,gadzhiyevo,69.2551,33.3362,-4.86,97,90,3.25,RU,1741123097
7,cochirleanca,45.2167,27.0333,5.98,66,0,3.04,RO,1741123252
8,usogorsk,63.4106,48.6872,-4.39,93,100,4.24,RU,1741123538
9,durban,-29.8579,31.0292,25.51,90,87,4.59,ZA,1741123539
10,ushuaia,-54.8,-68.3,6.81,93,75,2.57,AR,1741123540
11,longyearbyen,78.2186,15.6401,-9.09,62,20,9.77,SJ,1741123542
12,hermanus,-34.4187,19.2345,21.0,89,94,3.61,ZA,1741123543
13,afaahiti,-17.75,-149.2833,26.9,76,19,4.9,PF,1741123544
14,iqaluit,63.7506,-68.5145,-20.15,71,100,6.17,CA,1741123545
15,williston,48.147,-103.618,-3.87,75,100,4.02,US,1741123543
16,kiunga,-6.1219,141.2906,23.31,100,100,0.41,PG,1741123548
17,san antonio de pale,-1.4014,5.6325,27.82,70,100,2.36,GQ,1741123549
18,toliara,-23.35,43.6667,25.61,87,17,0.86,MG,1741123550
19,codrington,-38.2667,141.9667,16.13,59,0,1.74,AU,1741123551
20,benguela,-12.5763,13.4055,25.62,82,99,2.88,AO,1741123552
21,kerema,-7.9631,145.7785,25.89,87,33,1.36,PG,1741123554
22,stanley,54.868,-1.6985,6.01,74,20,4.12,GB,1741123555
23,badger,64.8,-147.5333,-0.05,63,20,3.09,US,1741123556
24,aykhal,66.0,111.5,-37.68,96,5,1.94,RU,1741123557
25,waitangi,-43.9535,-176.5597,11.01,97,100,1.79,NZ,1741123558
26,isafjordur,66.0755,-23.124,-6.51,89,75,8.64,IS,1741123560
27,constantia,44.1833,28.65,0.38,71,0,2.84,RO,1741123446
28,sodankyla,67.4167,26.6,-13.23,98,63,1.33,FI,1741123562
29,wailua homesteads,22.0669,-159.378,26.44,71,20,8.75,US,1741123563
30,nadvoitsy,63.8667,34.3167,-4.3,95,51,2.75,RU,1741123564
31,whitewater,42.8336,-88.7323,7.78,100,100,5.73,US,1741123566
32,cabo san lucas,22.8909,-109.9124,23.2,49,20,2.68,MX,1741123526
33,lebu,-37.6167,-73.65,18.67,79,1,2.95,CL,1741123568
34,ola,59.5833,151.2833,-18.35,96,100,4.07,RU,1741123569
35,grytviken,-54.2811,-36.5092,6.73,77,12,6.87,GS,1741123571
36,puerto armuelles,8.2833,-82.8667,28.94,58,4,3.58,PA,1741123572
37,crucecita,-28.95,-58.9833,38.02,23,52,5.17,AR,1741123573
38,olonkinbyen,70.9221,-8.7187,-1.21,87,100,11.18,SJ,1741123503
39,taltal,-25.4,-70.4833,19.53,71,32,1.1,CL,1741123575
40,flying fish cove,-10.4217,105.6791,26.82,89,97,3.09,CX,1741123577
41,carutapera,-1.195,-46.02,24.44,93,100,3.78,BR,1741123578
42,port alfred,-33.5906,26.891,21.88,87,85,1.69,ZA,1741123579
43,georgievka,49.3314,81.5761,-12.66,86,62,3.0,KZ,1741123283
44,selfoss,63.9331,-20.9971,0.58,83,100,15.83,IS,1741123583
45,chonchi,-42.6128,-73.8092,15.43,50,91,2.94,CL,1741123584
46,christchurch,-43.5333,172.6333,11.85,79,75,4.63,NZ,1741123585
47,sandy,40.572,-111.8606,9.96,44,81,3.13,US,1741123586
48,urangan,-25.3,152.9,22.81,70,43,5.96,AU,1741123588
49,adamstown,-25.066,-130.1015,25.59,77,13,6.24,PN,1741123589
50,invercargill,-46.4,168.35,11.12,77,3,2.24,NZ,1741123590
51,lompoc,34.6391,-120.4579,18.41,66,0,7.2,US,1741123592
52,edinburgh of the seven seas,-37.0676,-12.3116,13.86,62,31,4.55,SH,1741123593
53,whitehorse,60.7161,-135.0538,1.72,68,20,2.06,CA,1741123594
54,namibe,-15.1961,12.1522,23.16,81,83,1.26,AO,1741123595
55,saipan,15.1355,145.701,26.39,89,100,8.75,MP,1741123440
56,murzuq,25.9155,13.9184,17.04,28,100,3.74,LY,1741123598
57,piedmont,37.8244,-122.2316,13.7,70,100,3.09,US,1741123430
58,port mathurin,-19.6833,63.4167,27.8,77,50,8.15,MU,1741123600
59,khandyga,62.6667,135.6,-34.78,100,100,0.89,RU,1741123601
60,touros,-5.1989,-35.4608,27.02,74,83,5.12,BR,1741123603
61,tura,25.5198,90.2201,17.38,28,0,2.27,IN,1741123604
62,puerto natales,-51.7236,-72.4875,10.25,81,100,3.6,CL,1741123351
63,barranca,-10.75,-77.7667,25.11,71,82,5.05,PE,1741123607
64,albany,42.6001,-73.9662,8.69,44,100,1.79,US,1741123608
65,esmeralda,21.8525,-78.1169,28.63,53,56,5.89,CU,1741123609
66,nabire,-3.3667,135.4833,24.11,95,100,1.17,ID,1741123611
67,spanish wells,26.323,-81.7957,27.23,62,75,7.2,US,1741123613
68,nemuro,43.3236,145.575,-4.78,63,100,1.03,JP,1741123614
69,tazovsky,67.4667,78.7,-11.84,95,100,3.28,RU,1741123616
70,jamestown,42.097,-79.2353,14.8,23,0,3.6,US,1741123617
71,nacozari de garcia,30.3742,-109.6908,16.49,20,0,2.34,MX,1741123618
72,moires,35.0532,24.8744,10.12,77,22,0.82,GR,1741123620
73,west plains,36.7281,-91.8524,10.05,86,100,3.58,US,1741123621
74,happy valley-goose bay,53.3168,-60.3315,-8.83,57,75,4.12,CA,1741123622
75,margaret river,-33.95,115.0667,12.04,73,0,5.31,AU,1741123624
76,ancud,-41.8697,-73.8203,14.6,67,93,2.96,CL,1741123625
77,east london,-33.0153,27.9116,23.83,91,79,3.91,ZA,1741123626
78,papatowai,-46.5619,169.4708,11.3,53,11,1.28,NZ,1741123631
79,bethel,41.3712,-73.414,8.42,71,92,1.34,US,1741123632
80,el idrissia,34.4454,2.5275,7.93,89,98,8.45,DZ,1741123633
81,mochudi,-24.4167,26.15,22.33,54,94,1.34,BW,1741123635
82,santiago de cao,-7.9589,-79.2392,25.07,78,40,5.66,PE,1741123636
83,bredasdorp,-34.5322,20.0403,21.76,85,85,2.89,ZA,1741123638
84,college,64.8569,-147.8028,1.16,61,20,3.09,US,1741123640
85,fisterra,42.9049,-9.2629,13.02,84,17,7.39,ES,1741123641
86,bin yauri,10.7823,4.8114,33.35,14,29,2.28,NG,1741123642
87,manta,-0.95,-80.7333,27.88,83,40,6.69,EC,1741123645
88,ribeira grande,38.5167,-28.7,16.22,88,75,3.6,PT,1741123646
89,avarua,-21.2078,-159.775,26.03,89,100,3.09,CK,1741123647
90,enewetak,11.3474,162.3373,26.94,77,23,9.09,MH,1741123649
91,alpena,45.0617,-83.4327,4.18,97,100,2.57,US,1741123650
92,punta arenas,-53.15,-70.9167,9.06,87,40,7.2,CL,1741123651
93,brookings,44.3114,-96.7984,-1.0,87,100,12.35,US,1741123572
94,hithadhoo,-0.6,73.0833,27.93,73,48,3.66,MV,1741123654
95,pangody,65.85,74.4859,-11.06,97,91,3.36,RU,1741123655
96,new norfolk,-42.7826,147.0587,15.95,85,2,1.32,AU,1741123656
97,fortaleza,-3.7227,-38.5247,27.34,89,20,2.06,BR,1741123396
98,port elizabeth,-33.918,25.5701,20.73,99,0,2.68,ZA,1741123659
99,tucumcari,35.1717,-103.725,11.91,35,100,8.8,US,1741123661
100,ash shafa,21.0694,40.3119,9.86,70,2,1.71,SA,1741123663
101,dudinka,69.4058,86.1778,-16.29,96,100,4.84,RU,1741123664
102,puerto leguizamo,-0.1934,-74.7819,29.88,63,100,1.75,CO,1741123665
103,fauske,67.2588,15.3918,-2.82,81,100,4.25,NO,1741123667
104,dryden,49.7833,-92.7503,-2.84,74,100,3.09,CA,1741123668
105,vorkuta,67.5,64.0,-19.24,100,99,1.55,RU,1741123671
106,camana,-16.6228,-72.7111,22.78,81,74,3.04,PE,1741123672
107,eskilstuna,59.3666,16.5077,6.52,85,100,6.66,SE,1741123673
108,utrik,11.2278,169.8474,26.73,78,6,8.82,MH,1741123675
109,chui,-33.6971,-53.4616,29.3,65,0,5.16,UY,1741123394
110,herzberg,51.6869,13.2202,4.09,70,0,2.54,DE,1741123677
111,puerto ayora,-0.7393,-90.3518,26.97,94,98,3.58,EC,1741123678
112,belokany,41.7258,46.4083,4.05,64,74,3.26,AZ,1741123680
113,beloyarskiy,63.7119,66.6722,-9.07,96,100,2.04,RU,1741123681
114,lubu,23.1742,112.2809,16.97,84,100,1.59,CN,1741123682
115,bilibino,68.0546,166.4372,-33.27,95,29,0.69,RU,1741123684
116,varna,43.2167,27.9167,2.71,86,0,1.03,BG,1741123685
117,trondheim,63.4305,10.3951,6.03,94,100,2.68,NO,1741123686
118,fonte boa,-2.4959,-66.2662,29.93,69,95,0.27,BR,1741123687
119,santa maria,-29.6842,-53.8069,32.61,62,0,3.09,BR,1741123689
120,kristiansund,63.1115,7.732,8.4,81,75,12.86,NO,1741123690
121,usinsk,65.9939,57.5281,-8.56,94,100,4.72,RU,1741123692
122,jincheng,35.5022,112.8328,1.21,75,49,1.01,CN,1741123693
123,tobelo,1.7284,128.0095,27.1,84,100,2.37,ID,1741123694
124,manay,7.215,126.5397,23.9,85,74,2.2,PH,1741123695
125,thompson,55.7435,-97.8558,-8.91,62,75,3.6,CA,1741123474
126,at taj,24.2049,23.2857,15.3,34,78,4.53,LY,1741123698
127,point pedro,9.8167,80.2333,25.87,79,100,3.02,LK,1741123699
128,ust-nera,64.5667,143.2,-25.97,98,100,2.72,RU,1741123701
129,cole harbour,44.6724,-63.4751,0.66,69,75,8.23,CA,1741123702
130,santa ana,33.7456,-117.8678,20.76,47,20,5.66,US,1741123703
131,ghat,24.9647,10.1728,21.12,18,100,1.18,LY,1741123704
132,ascencion de guarayos,-15.8963,-63.1881,24.64,97,82,1.74,BO,1741123706
133,saint-pierre,-21.3393,55.4781,27.82,69,75,1.03,RE,1741123707
134,hawaiian paradise park,19.5933,-154.9731,23.74,90,100,3.6,US,1741123708
135,anadyr,64.75,177.4833,-27.72,76,0,3.0,RU,1741123711
136,hadibu,12.65,54.0333,24.86,76,30,4.7,YE,1741123712
137,iskateley,67.6803,53.1512,-4.7,90,100,5.17,RU,1741123713
138,ylitornio,66.3089,23.6773,-10.53,95,72,0.85,FI,1741123715
139,trujillo,-8.116,-79.03,24.98,78,40,5.66,PE,1741123716
140,hasaki,35.7333,140.8333,12.16,83,100,10.38,JP,1741123718
141,talnakh,69.4865,88.3972,-19.27,97,100,3.96,RU,1741123719
142,choyr,46.3611,108.3611,-7.37,68,100,0.73,MN,1741123720
143,hilo,19.7297,-155.09,23.86,93,100,3.6,US,1741123598
144,port blair,11.6667,92.75,24.02,94,52,1.03,IN,1741123723
145,umba,66.6871,34.3429,-5.6,97,89,1.38,RU,1741123724
146,hamilton,39.1834,-84.5333,18.97,23,0,7.72,US,1741123725
147,kurkino,53.4257,38.6582,0.64,98,100,7.29,RU,1741123727
148,newnham,-41.3833,147.1333,15.53,88,20,1.54,AU,1741123728
149,solwezi,-12.1688,26.3894,16.58,96,80,1.67,ZM,1741123731
150,manakara,-22.1333,48.0167,26.47,90,100,3.56,MG,1741123732
151,labytnangi,66.6572,66.4183,-14.57,98,100,0.19,RU,1741123734
152,georgetown,5.4112,100.3354,27.96,78,20,1.03,MY,1741123735
153,antalaha,-14.9003,50.2788,24.64,88,73,1.4,MG,1741123736
154,alesund,62.4723,6.1549,8.52,82,75,12.35,NO,1741123455
155,praia da vitoria,38.7333,-27.0667,16.14,88,40,2.92,PT,1741123739
156,sur,22.5667,59.5289,20.35,61,0,2.17,OM,1741123740
157,firuzabad,28.8438,52.5707,9.79,75,100,0.43,IR,1741123742
158,san juan de miraflores,-12.1629,-76.9635,23.29,73,57,4.09,PE,1741123485
159,jwaneng,-24.6004,24.7303,23.87,58,53,2.88,BW,1741123744
160,saint-denis,48.9167,2.3333,7.86,78,0,1.03,FR,1741123744
161,callaway,30.153,-85.5699,23.96,71,0,13.38,US,1741123471
162,udachny,66.4167,112.4,-40.95,99,41,1.43,RU,1741123748
163,dhidhdhoo,6.8833,73.1,27.94,76,92,4.04,MV,1741123749
164,marquette,46.5333,-87.6335,0.69,97,100,0.45,US,1741123750
165,cockburn town,21.4612,-71.1419,24.51,78,70,10.47,TC,1741123752
166,chegdomyn,51.1167,133.0167,-21.43,100,100,0.14,RU,1741123753
167,the pas,53.8251,-101.2541,-4.99,58,100,4.63,CA,1741123754
168,kotabumi,-4.8333,104.9,23.47,97,100,2.05,ID,1741123755
169,fort bragg,35.139,-79.006,20.91,47,75,5.14,US,1741123757
170,darwin,-12.4611,130.8418,26.99,94,20,1.54,AU,1741123758
171,sola,-13.8833,167.55,28.37,84,75,0.0,VU,1741123760
172,acajutla,13.5928,-89.8275,30.35,57,4,5.33,SV,1741123761
173,toguchin,55.2353,84.3858,-9.08,94,100,3.09,RU,1741123762
174,alotau,-10.3069,150.4462,26.19,91,100,2.13,PG,1741123763
175,qaqortoq,60.7167,-46.0333,-19.75,75,0,2.24,GL,1741123765
176,moranbah,-22.0016,148.0466,24.47,70,0,0.34,AU,1741123766
177,selkirk,50.1436,-96.8845,-4.34,78,100,4.92,CA,1741123767
178,mont-laurier,46.5501,-75.4993,0.32,100,100,2.44,CA,1741123669
179,tiksi,71.6872,128.8694,-31.76,100,87,1.67,RU,1741123770
180,muisne,0.6,-80.0333,26.23,80,100,1.85,EC,1741123771
181,geraldton,-28.7667,114.6,18.23,72,3,4.63,AU,1741123674
182,colonia,50.9333,6.95,6.65,61,1,1.89,DE,1741123551
183,inhambane,-23.865,35.3833,25.07,89,6,3.67,MZ,1741123775
184,campbellton,48.0075,-66.6727,-6.75,88,100,3.23,CA,1741123777
185,bansi,27.1833,82.9333,17.08,30,0,6.07,IN,1741123778
186,anloga,5.7947,0.8973,28.0,81,97,4.08,GH,1741123779
187,atafu village,-8.5421,-172.5159,27.98,72,100,4.39,TK,1741123781
188,qamdo,31.1667,97.2333,-2.75,58,16,2.54,CN,1741123782
189,island harbour,50.724,-1.2758,4.55,89,0,1.66,GB,1741123783
190,kabare,-2.4683,28.8242,17.12,93,90,0.47,CD,1741123785
191,imbituba,-28.24,-48.6703,25.7,75,0,8.8,BR,1741123786
192,impfondo,1.6381,18.0667,26.06,51,10,0.55,CG,1741123788
193,saint-philippe,-21.3585,55.7679,26.76,83,35,7.22,RE,1741123789
194,sinop,41.7711,34.8709,-0.77,90,8,4.08,TR,1741123791
195,itoman,26.1247,127.6694,19.21,94,100,3.09,JP,1741123792
196,keflavik,64.0049,-22.5624,1.24,93,100,12.86,IS,1741123793
197,dunedin,-45.8742,170.5036,12.67,66,29,1.34,NZ,1741123794
198,san rafael del sur,11.8485,-86.4384,33.62,40,19,2.24,NI,1741123796
199,vernon,50.2581,-119.2691,8.75,56,100,1.03,CA,1741123797
200,aracena,37.894,-6.5612,8.82,93,100,1.76,ES,1741123798
201,san luis de la loma,17.2706,-100.8939,28.41,56,2,4.15,MX,1741123800
202,bad ems,50.3333,7.7167,2.29,70,3,1.05,DE,1741123801
203,la ronge,55.1001,-105.2842,4.14,45,40,4.63,CA,1741123802
204,maysville,38.6412,-83.7444,19.72,20,0,6.17,US,1741123566
205,lihue,21.9789,-159.3672,26.77,65,20,8.75,US,1741123805
206,mermoz boabab,14.7065,-17.4758,18.88,82,0,5.14,SN,1741123806
207,tuy hoa,13.0833,109.3,21.81,90,95,1.3,VN,1741123807
208,santana,-0.0583,-51.1817,26.1,94,100,5.14,BR,1741123809
209,praya,14.9215,-23.5087,20.3,60,75,4.63,CV,1741123810
210,balsas,-7.5325,-46.0356,25.75,80,55,1.8,BR,1741123812
211,bac lieu,9.285,105.7244,24.96,85,94,1.44,VN,1741123813
212,altay,47.8667,88.1167,-9.33,97,100,0.66,CN,1741123814
213,rio grande,-32.035,-52.0986,25.66,82,0,6.51,BR,1741123816
214,leticia,-4.2153,-69.9406,27.03,89,75,3.58,CO,1741123664
215,bamboo flat,11.7,92.7167,24.05,94,58,1.03,IN,1741123818
216,labrador city,52.9463,-66.9114,-10.05,44,100,4.12,CA,1741123820
217,kailua-kona,19.6406,-155.9956,28.49,63,20,5.14,US,1741123822
218,jawhar,2.7809,45.5005,25.1,83,38,5.49,SO,1741123823
219,carnarvon,-24.8667,113.6333,27.82,60,23,8.2,AU,1741123825
220,kourou,5.1552,-52.6478,24.31,89,66,2.81,GF,1741123826
221,kodiak,57.79,-152.4072,3.73,100,100,4.12,US,1741123827
222,genhe,50.7833,121.5167,-16.76,99,99,0.3,CN,1741123829
223,salalah,17.0151,54.0924,26.05,69,40,3.09,OM,1741123783
224,vilyuchinsk,52.9306,158.4028,-4.85,84,100,5.48,RU,1741123831
225,macedonia,41.3137,-81.5085,17.38,29,38,4.72,US,1741123834
226,saint-joseph,-21.3667,55.6167,27.21,83,17,4.82,RE,1741123835
227,alice town,25.7167,-79.3,22.92,77,69,12.14,BS,1741123836
228,akureyri,65.6835,-18.0878,-1.04,69,75,5.14,IS,1741123838
229,paramonga,-10.6667,-77.8333,24.84,76,74,4.8,PE,1741123839
230,melfort,52.8667,-104.6177,1.07,64,97,4.12,CA,1741123841
231,alice springs,-23.7,133.8833,20.75,28,0,2.57,AU,1741123842
232,ostersund,63.1792,14.6357,0.9,95,20,7.72,SE,1741123844
233,tsiombe,-25.3,45.4833,23.5,94,98,0.72,MG,1741123845
234,la'ie,21.6477,-157.9253,25.66,73,14,5.36,US,1741123848
235,raduzhny,62.0961,77.475,-16.36,100,97,2.18,RU,1741123849
236,morondava,-20.2833,44.2833,26.11,78,52,0.8,MG,1741123850
237,mount isa,-20.7333,139.5,20.87,68,0,1.03,AU,1741123851
238,la plata,-34.9215,-57.9545,25.18,80,99,3.74,AR,1741123853
239,mana,5.6592,-53.7767,25.34,83,9,3.96,GF,1741123854
240,tarboro,35.8968,-77.5358,19.0,42,75,4.12,US,1741123821
241,axim,4.8699,-2.2405,27.21,85,100,4.11,GH,1741123857
242,crane,31.3974,-102.3501,21.41,12,1,10.94,US,1741123858
243,lebyazh'ye,55.2689,66.4947,-12.11,96,99,3.93,RU,1741123859
244,eenhana,-17.4667,16.3333,20.59,89,99,1.39,NA,1741123862
245,iquitos,-3.7481,-73.2472,27.02,83,75,1.54,PE,1741123864
246,aasiaat,68.7098,-52.8699,-25.09,96,94,2.48,GL,1741123865
247,bereznik,62.8551,42.7072,-2.39,97,100,2.37,RU,1741123866
248,porbandar,21.6422,69.6093,20.93,21,1,4.45,IN,1741123868
249,itaituba,-4.2761,-55.9836,26.09,89,20,3.6,BR,1741123869
250,vorgashor,67.5833,63.95,-19.56,99,98,1.75,RU,1741123870
251,luderitz,-26.6481,15.1594,18.49,80,0,4.79,NA,1741123872
252,brisas de zicatela,15.8369,-97.0419,30.29,74,20,6.17,MX,1741123873
253,portland,45.5234,-122.6762,13.33,74,75,7.72,US,1741123849
254,hobyo,5.3505,48.5268,25.62,77,40,7.38,SO,1741123876
255,mossel bay,-34.1831,22.146,21.14,90,64,2.82,ZA,1741123877
256,fallon,39.4735,-118.7774,12.28,33,75,0.45,US,1741123878
257,vadso,70.0744,29.7487,-1.91,100,75,3.09,NO,1741123880
258,mount gambier,-37.8333,140.7667,18.41,55,0,2.72,AU,1741123883
259,porto novo,6.4965,2.6036,28.9,80,100,4.75,BJ,1741123884
260,las tablas,7.7667,-80.2833,31.21,99,62,3.47,PA,1741123885
261,nagqu,31.5,92.0,-4.82,10,0,8.15,CN,1741123886
262,vila franca do campo,37.7167,-25.4333,14.23,83,89,1.03,PT,1741123888
263,cill airne,52.05,-9.5167,6.93,90,100,2.8,IE,1741123890
264,breves,-1.6822,-50.4803,24.07,96,88,2.36,BR,1741123892
265,freeport,40.6576,-73.5832,9.07,73,0,9.26,US,1741123896
266,plastun,44.7561,136.2939,-6.2,63,100,1.33,RU,1741123897
267,cacocum,20.7374,-76.3279,29.18,51,40,7.2,CU,1741123899
268,soto la marina,23.7667,-98.2167,35.08,20,19,8.7,MX,1741123900
269,jose de freitas,-4.7564,-42.5756,23.98,94,85,2.86,BR,1741123822
270,walvis bay,-22.9575,14.5053,17.53,88,64,2.57,NA,1741123903
271,kudahuvadhoo,2.6708,72.8944,27.42,71,20,0.63,MV,1741123906
272,nar'yan-mar,67.6713,53.087,-5.99,93,100,5.36,RU,1741123909
273,teluk nibung,3.001,99.8164,23.65,96,100,1.22,ID,1741123885
274,ta`u,-14.2336,-169.5144,26.95,76,82,2.45,AS,1741123912
275,general acha,-37.377,-64.6043,25.95,79,97,5.37,AR,1741123913
276,palikir - national government center,6.9248,158.1611,28.47,79,100,3.09,FM,1741123915
277,zaozersk,69.4005,32.4476,-8.69,98,89,2.86,RU,1741123916
278,nikolayevsk-on-amure,53.1406,140.73,-15.76,97,100,1.19,RU,1741123918
279,yuma,32.7253,-114.6244,23.43,25,0,2.06,US,1741123920
280,kununurra,-15.7667,128.7333,25.99,89,19,0.0,AU,1741123904
281,petropavlovsk-kamchatsky,53.0452,158.6483,-5.67,63,75,1.0,RU,1741123923
282,el rama,12.1596,-84.2195,29.51,59,0,3.81,NI,1741123924
283,bukama,-9.2,25.85,21.27,96,81,1.43,CD,1741123926
284,santa paula,34.3542,-119.0593,20.78,58,20,6.17,US,1741123927
285,conceicao da barra,-18.5933,-39.7322,24.18,86,2,2.13,BR,1741123928
286,orange,33.7,-117.7675,20.66,48,20,5.66,US,1741123801
287,nevel'sk,46.6733,141.8633,-11.17,73,100,2.69,RU,1741123931
288,dire,12.2833,-10.9667,29.58,22,5,1.0,ML,1741123932
289,dzhangala,49.2167,50.3333,0.36,98,100,8.07,KZ,1741123934
290,culfa,38.9558,45.6308,2.93,65,61,0.45,AZ,1741123935
291,ankang,32.68,109.0172,4.88,78,100,1.62,CN,1741123936
292,northam,51.0333,-4.2167,3.22,90,4,0.89,GB,1741123937
293,lerwick,60.1545,-1.1494,7.6,88,100,11.05,GB,1741123939
294,vung tau,10.346,107.0843,24.84,87,37,3.7,VN,1741123940
295,blakely,41.4809,-75.5946,12.15,40,40,3.6,US,1741123941
296,sitka,57.0531,-135.33,8.94,57,20,4.12,US,1741123942
297,nova sintra,14.8667,-24.7167,21.26,62,36,8.21,CV,1741123944
298,nova vicosa,-17.8919,-39.3719,24.95,83,1,3.52,BR,1741123832
299,st. john's,47.5649,-52.7093,-5.02,59,75,6.69,CA,1741123653
300,kruisfontein,-34.0033,24.7314,20.19,84,28,1.71,ZA,1741123947
301,susuman,62.7833,148.1667,-26.91,97,100,1.57,RU,1741123949
302,merowe,18.4833,31.8167,22.57,9,0,4.28,SD,1741123950
303,padang,-0.9492,100.3543,25.03,92,100,1.91,ID,1741123951
304,ilulissat,69.2167,-51.1,-25.93,94,82,1.89,GL,1741123952
305,cabimas,10.3883,-71.4399,30.15,61,80,7.22,VE,1741123953
306,bardai,11.65,7.2333,27.05,15,70,4.55,NG,1741123955
307,nacala,-14.5428,40.6728,25.05,88,60,0.83,MZ,1741123956
308,sarangani,5.4033,125.4636,28.01,78,100,8.12,PH,1741123957
309,tilcara,-23.5776,-65.3509,11.05,95,92,2.72,AR,1741123958
310,kerikeri,-35.2268,173.9474,21.49,46,25,4.5,NZ,1741123959
311,shingu,33.7333,135.9833,10.41,91,100,3.02,JP,1741123961
312,port douglas,-16.4833,145.4667,26.41,76,10,1.03,AU,1741123962
313,erenhot,43.6475,111.9767,-3.68,64,11,3.22,CN,1741123963
314,pasighat,28.0667,95.3333,17.41,59,80,1.81,IN,1741123964
315,thunder bay,48.4001,-89.3168,1.99,60,100,5.66,CA,1741123921
316,puerto plata,19.7934,-70.6884,28.91,65,40,6.17,DO,1741123851
317,martapura,-3.4167,114.85,25.05,100,100,1.03,ID,1741123968
318,dean funes,-30.4204,-64.3498,30.15,44,88,4.98,AR,1741123969
319,hwange,-18.3693,26.5019,20.68,94,67,1.03,ZW,1741123970
320,san patricio,28.017,-97.5169,30.97,13,2,11.15,US,1741123972
321,el rosario,24.2556,-107.1828,29.66,13,30,7.43,MX,1741123973
322,egilsstadir,65.2653,-14.3948,-2.05,69,0,3.6,IS,1741123974
323,las terrenas,19.311,-69.5428,28.93,70,40,3.09,DO,1741123975
324,hanzhong,33.0728,107.0303,5.84,84,100,0.46,CN,1741123976
325,kota kinabalu,5.9749,116.0724,24.99,94,20,0.0,MY,1741123978
326,mugia,43.1041,-9.2179,12.17,86,11,7.78,ES,1741123979
327,n'dalatando,-9.2978,14.9116,20.22,95,60,1.03,AO,1741123980
328,kirakira,-10.4544,161.9205,28.59,73,91,1.48,SB,1741123981
329,hammerfest,70.6634,23.6821,-3.75,86,20,1.54,NO,1741123982
330,angaur state,6.906,134.13,28.15,80,53,8.5,PW,1741123985
331,gloversville,43.0528,-74.3438,5.58,57,40,0.0,US,1741123986
332,esperanza,19.5847,-70.9849,26.09,68,62,5.31,DO,1741123987
333,souillac,-20.5167,57.5167,27.21,83,75,4.12,MU,1741123989
334,farkhar,36.5729,69.8578,-0.99,35,11,5.26,AF,1741123990
335,uttarkashi,30.7333,78.45,3.23,56,2,3.2,IN,1741123991
336,nasiriyah,31.0521,46.261,15.7,53,100,8.72,IQ,1741123992
337,ekibastuz,51.6667,75.3667,-13.72,88,41,6.0,KZ,1741123993
338,canico,32.6333,-16.85,16.11,83,40,4.12,PT,1741123995
339,harstad,68.799,16.5293,0.23,85,99,1.79,NO,1741123996
340,bouznika,33.7894,-7.1597,14.86,100,75,2.06,MA,1741123997
341,tobol'sk,58.2,68.2667,-14.48,98,100,2.92,RU,1741123998
342,inari,68.906,27.0288,-11.67,99,78,1.32,FI,1741124000
343,laojunmiao,39.8333,97.7333,-4.85,71,100,5.68,CN,1741124001
344,kuching,1.55,110.3333,25.02,98,40,1.03,MY,1741124002
345,yemva,62.59,50.8594,-4.52,93,100,3.78,RU,1741124003
346,west island,-12.1568,96.8225,27.99,89,20,5.14,CC,1741124005
347,mula,38.0409,-1.4901,12.73,87,100,2.51,ES,1741124006
348,poxoreo,-15.8372,-54.3892,22.59,92,98,0.99,BR,1741123802
349,murashi,59.3999,48.9615,-5.76,95,100,4.06,RU,1741124008
350,cromwell,41.5951,-72.6454,8.12,73,100,7.2,US,1741124010
351,abdulino,53.7,53.6667,-5.64,94,100,7.83,RU,1741124011
352,lionel town,17.8101,-77.2406,27.61,66,25,3.34,JM,1741124013
353,esquel,-42.9,-71.3167,14.17,60,21,7.14,AR,1741123791
354,ar ruways,24.1103,52.7306,20.49,60,92,4.59,AE,1741124016
355,borogontsy,62.6683,131.1683,-28.22,98,100,2.06,RU,1741124017
356,sarakhs,36.5449,61.1577,8.01,32,99,2.6,IR,1741124018
357,gizo,-8.103,156.8419,28.39,78,91,4.31,SB,1741124020
358,victoria falls,-17.9235,25.843,20.32,88,76,1.02,ZW,1741124021
359,tierp,60.3427,17.5181,5.74,86,100,4.78,SE,1741124022
360,ylivieska,64.0833,24.55,-1.77,90,85,3.3,FI,1741124023
361,buta,2.7858,24.73,27.17,56,99,0.78,CD,1741124024
362,mujiayingzi,42.1167,118.7833,-5.47,28,50,1.25,CN,1741124026
363,paita,-5.0892,-81.1144,27.42,70,74,6.62,PE,1741124027
364,remire-montjoly,4.9167,-52.2667,26.02,89,100,1.54,GF,1741124028
365,kapuskasing,49.4169,-82.4331,-1.95,74,100,4.12,CA,1741123922
366,konarka,19.9,86.1167,24.47,88,47,4.04,IN,1741124031
367,severo-yeniseyskiy,60.3725,93.0408,-12.68,97,98,1.7,RU,1741124032
368,bulungu,-4.55,18.6,24.22,74,82,0.44,CD,1741124033
369,bayanhongor,46.7167,100.1167,-25.09,88,2,1.27,MN,1741124034
370,arkhangel'sk,64.5401,40.5433,0.06,93,75,3.0,RU,1741124036
371,igarka,67.4667,86.5833,-13.3,96,100,4.65,RU,1741124037
372,iwon-up,40.3231,128.6553,-2.8,72,100,1.81,KP,1741124038
373,nuku'alofa,-21.1333,-175.2,29.19,84,75,5.66,TO,1741124039
374,nyurba,63.2842,118.3319,-41.48,100,74,1.76,RU,1741124040
375,zhanaozen,43.3,52.8,-1.52,95,75,4.53,KZ,1741124043
376,huarmey,-10.0681,-78.1522,25.55,76,75,4.91,PE,1741124044
377,taulaga,-11.0553,-171.0883,28.04,67,76,3.01,AS,1741124046
378,colares,38.7992,-9.4469,15.18,84,68,4.02,PT,1741124047
379,mancio lima,-7.6142,-72.8958,30.04,74,75,1.54,BR,1741124048
380,baiao,-2.7906,-49.6717,23.74,98,100,0.85,BR,1741124049
381,le port,-20.9373,55.2919,24.98,80,5,4.45,RE,1741124051
382,ohara,35.25,140.3833,14.06,88,100,9.07,JP,1741124052
383,pacific grove,36.6177,-121.9166,16.82,82,100,3.6,US,1741124053
384,nuuk,64.1835,-51.7216,-12.66,72,20,1.54,GL,1741124007
385,volodarskiy,46.4013,48.5409,0.19,86,100,7.58,RU,1741124055
386,abatskoye,56.2875,70.4555,-20.78,100,42,2.87,RU,1741124057
387,kolonia,50.9333,6.95,6.36,57,0,1.03,DE,1741124058
388,goz beida,13.95,20.55,26.68,18,2,3.38,TD,1741124059
389,doume,4.2333,13.45,23.58,69,87,1.71,CM,1741124060
390,arraial do cabo,-22.9661,-42.0278,27.92,74,40,6.17,BR,1741123796
391,alofi,-19.0595,-169.9187,27.94,83,40,2.06,NU,1741124063
392,sinabang,2.4803,96.3801,25.64,88,100,3.75,ID,1741124064
393,hazaribagh,23.9833,85.35,15.3,43,0,3.01,IN,1741124065
394,sao vicente,-23.9631,-46.3919,27.98,37,20,2.24,BR,1741124066
395,puntarenas,9.9763,-84.8384,30.79,55,10,5.92,CR,1741124067
396,san pedro pochutla,15.7333,-96.4667,31.51,44,5,5.62,MX,1741124069
397,rongelap,11.1635,166.8941,26.42,80,16,7.65,MH,1741124070
398,kidal,18.4411,1.4078,29.71,10,51,4.92,ML,1741124071
399,chirilagua,13.2203,-88.1386,34.83,46,5,2.22,SV,1741124072
400,polyarnyy,69.1989,33.4478,-5.22,96,85,3.9,RU,1741124073
401,ubari,26.5921,12.7805,17.04,31,100,3.96,LY,1741124075
402,mount pearl,47.5166,-52.7813,-5.48,61,75,6.69,CA,1741124050
403,fort st. john,56.2499,-120.8529,1.94,69,40,2.57,CA,1741123804
404,simanggang,1.2472,111.4528,25.01,100,96,1.03,MY,1741124078
405,castillos,-34.1667,-53.8333,25.36,82,0,3.96,UY,1741123983
406,uturoa,-16.7333,-151.4333,28.44,72,46,4.54,PF,1741124081
407,kingston,17.997,-76.7936,27.53,74,75,4.63,JM,1741123840
408,tarawa,1.419,172.984,28.05,78,20,7.82,KI,1741124083
409,suomussalmi,64.8869,28.9078,-8.84,99,46,2.57,FI,1741123907
410,sainte-anne-des-monts,49.124,-66.4924,-1.07,59,100,5.14,CA,1741124085
411,turochak,52.2576,87.1224,-5.32,98,100,0.88,RU,1741124087
412,blanchard,35.1378,-97.6581,14.9,57,12,15.31,US,1741123969
413,iron river,46.0927,-88.6423,0.59,99,100,2.23,US,1741124089
414,fortuna,40.5982,-124.1573,12.51,94,100,2.57,US,1741124090
415,port lincoln,-34.7333,135.8667,19.94,81,0,9.46,AU,1741124091
416,glace bay,46.1969,-59.957,-2.75,55,20,6.69,CA,1741124093
417,matoury,4.8483,-52.3317,24.98,88,75,2.57,GF,1741124094
418,baki,-7.6128,110.7839,23.69,94,100,2.07,ID,1741124095
419,bay city,43.5945,-83.8889,7.27,84,100,2.57,US,1741124096
420,khorinsk,52.1657,109.7726,-17.29,98,99,0.22,RU,1741124097
421,mogocha,53.7333,119.7667,-22.77,98,22,1.46,RU,1741124002
422,talara,-4.5772,-81.2719,29.42,61,0,5.14,PE,1741124100
423,lobito,-12.3481,13.5456,25.67,83,100,3.75,AO,1741124101
424,luis correia,-2.8792,-41.6669,28.0,78,100,6.17,BR,1741124102
425,port augusta,-32.5,137.7667,23.76,48,0,3.63,AU,1741124103
426,veraval,20.9,70.3667,21.93,20,0,6.75,IN,1741124105
427,rawson,-43.3002,-65.1023,33.16,17,0,11.32,AR,1741123841
428,zhosaly,45.4878,64.0781,-3.5,78,100,5.3,KZ,1741124107
429,peterhead,57.5058,-1.7981,9.68,75,100,9.05,GB,1741124108
430,betio village,1.358,172.9211,28.02,83,43,7.77,KI,1741124110
431,queenstown,-31.8976,26.8753,19.87,65,94,0.81,ZA,1741124111
432,richards bay,-28.783,32.0377,23.57,89,65,2.99,ZA,1741124112
433,kismayo,-0.3582,42.5454,25.69,85,91,5.83,SO,1741124114
434,pandan,14.0453,124.1694,24.5,88,100,1.86,PH,1741124115
435,chebba,35.2372,11.115,14.58,78,81,5.9,TN,1741124116
436,upata,8.0086,-62.3989,29.13,51,88,3.2,VE,1741124117
437,laguna,38.421,-121.4238,14.15,61,75,0.0,US,1741124118
438,lubango,-14.9172,13.4925,17.12,86,98,1.09,AO,1741124120
439,kapa'a,22.0752,-159.319,27.49,70,20,8.75,US,1741124121
440,zapolyarnyy,69.4154,30.8136,-8.07,97,91,2.02,RU,1741124122
441,jerada,34.31,-2.16,9.86,73,35,1.39,MA,1741124123
442,ardabil,38.2498,48.2933,-6.25,93,0,1.03,IR,1741124125
443,taroa,8.7058,171.2275,27.07,76,9,8.88,MH,1741124126
444,korsakov,46.6328,142.7813,-25.09,87,78,1.97,RU,1741124127
445,lalitpur,27.6667,85.3333,11.21,82,20,1.54,NP,1741124128
446,rice lake,45.5061,-91.7382,4.82,95,100,6.69,US,1741124129
447,vila velha,-20.3297,-40.2925,24.97,94,75,0.51,BR,1741124131
448,jayapura,-2.5333,140.7,25.66,92,88,2.44,ID,1741124132
449,okap,19.7578,-72.2042,24.98,77,0,5.39,HT,1741124133
450,fale old settlement,-9.3852,-171.2468,28.07,70,100,3.84,TK,1741124134
451,gaigeturi,33.4644,126.3183,7.03,87,100,3.09,KR,1741124137
452,divnogorsk,55.9594,92.3619,-12.73,99,100,1.5,RU,1741124138
453,manokwari,-0.8667,134.0833,26.73,74,100,2.2,ID,1741124140
454,karungdong,5.8844,121.263,26.66,83,93,0.65,PH,1741124141
455,vodnyy,63.5046,53.4095,-5.11,93,100,3.64,RU,1741124143
456,aswan,24.0934,32.907,19.61,27,0,2.06,EG,1741124144
457,nidau,47.1255,7.2403,5.82,90,0,0.0,CH,1741124145
458,beyneu,45.3167,55.2,-7.25,90,19,3.22,KZ,1741124146
459,buchanan,5.8808,-10.0467,25.79,86,55,2.77,LR,1741124148
460,cururupu,-1.8283,-44.8683,23.01,100,100,0.82,BR,1741124149
461,gafanha da nazare,40.6362,-8.7134,12.38,78,36,2.32,PT,1741124150
462,chernyshevsk,52.5243,117.0174,-26.0,100,92,1.05,RU,1741124151
463,rong'an,26.1247,119.1214,12.94,94,100,1.77,CN,1741124152
464,kristinestad,62.2743,21.376,0.48,82,100,4.85,FI,1741124154
465,conde,-7.2597,-34.9075,26.7,78,20,3.6,BR,1741124151
466,ierapetra,35.01,25.7353,12.86,69,63,4.02,GR,1741124156
467,brak,27.5496,14.2714,15.29,38,93,3.69,LY,1741124159
468,yorkton,51.2167,-102.4677,-3.09,80,100,3.6,CA,1741124160
469,sikasso,10.9167,-7.0,30.92,22,5,2.26,ML,1741124162
470,chibougamau,49.9168,-74.3659,-2.21,86,100,3.09,CA,1741124163
471,altai,46.3722,96.2583,-12.95,58,69,1.47,MN,1741124165
472,strelka,58.0728,93.0344,-16.01,99,98,0.8,RU,1741124166
473,nouadhibou,20.931,-17.0347,18.99,77,76,3.6,MR,1741124167
474,sakaraha,-22.9,44.5333,22.11,95,53,0.56,MG,1741124168
475,bat khela,34.6167,71.9714,7.66,44,0,3.17,PK,1741124169
476,rio bueno,-40.3167,-72.9667,16.7,92,90,1.4,CL,1741124171
477,bellegarde,43.7533,4.5165,7.61,87,0,1.54,FR,1741124173
478,montagu,-40.7667,144.9667,18.31,84,8,7.89,AU,1741124174
479,yuzhno-kurilsk,44.0306,145.8556,-6.36,66,96,0.81,RU,1741124176
480,awjilah,29.1081,21.2869,15.58,52,28,5.65,LY,1741124177
481,kone,-21.0595,164.8658,29.11,73,25,1.0,NC,1741124178
482,xilin hot,43.9667,116.0333,-7.34,78,12,3.17,CN,1741124179
483,katsuren-haebaru,26.3369,127.8719,19.21,95,75,3.09,JP,1741124180
484,illizi,26.4833,8.4667,22.18,17,100,3.92,DZ,1741124182
485,as sulayyil,20.4607,45.5779,22.91,24,99,4.8,SA,1741124183
486,la junta,37.985,-103.5438,10.16,34,40,16.98,US,1741124184
487,howard springs,-12.497,131.047,26.95,100,12,1.48,AU,1741124186
488,sidney,-33.8679,151.2073,21.91,83,40,5.66,AU,1741123982
489,la sarre,48.8002,-79.1996,0.05,100,100,0.91,CA,1741123959
490,georgiyevka,43.0369,74.7114,-4.98,80,43,2.0,KZ,1741124190
491,khao wong,16.7001,104.0902,26.97,60,85,1.78,TH,1741124191
492,palapye,-22.546,27.1251,23.67,61,21,2.09,BW,1741124192
493,labuan,5.2767,115.2417,26.2,94,40,0.0,MY,1741124194
494,la passe,45.5549,-0.8967,9.52,81,77,3.31,FR,1741124195
495,lamar,33.6668,-95.5836,17.95,39,75,10.29,US,1741124196
496,talcahuano,-36.7167,-73.1167,20.82,64,40,4.63,CL,1741124199
497,zvishavane,-20.3267,30.0665,19.48,85,61,0.46,ZW,1741124200
498,ugoofaaru,5.6667,73.0,27.97,73,98,4.93,MV,1741124201
499,protaras,35.0125,34.0583,18.88,60,24,4.47,CY,1741124202
500,carauari,-4.8828,-66.8958,27.46,83,89,0.26,BR,1741124204
501,bengkulu,-3.8004,102.2655,24.47,87,100,1.8,ID,1741124205
502,neryungri,56.6709,124.6491,-34.91,100,97,0.39,RU,1741124206
503,taguatinga,-12.3857,-46.5711,27.43,40,26,2.77,BR,1741124054
504,scottburgh,-30.2867,30.7532,24.14,92,75,3.89,ZA,1741124208
505,ujar,40.519,47.6542,4.04,73,52,2.9,AZ,1741124210
506,laem sing,12.4816,102.0738,26.44,80,100,2.31,TH,1741124211
507,shubarshi,48.5872,57.1869,-5.83,96,100,6.22,KZ,1741124212
508,coquimbo,-29.9533,-71.3436,20.85,69,0,6.69,CL,1741124180
509,hinthada,17.6333,95.4667,21.89,49,0,0.23,MM,1741124214
510,winnemucca,40.973,-117.7357,7.94,45,95,4.28,US,1741124216
511,salekhard,66.53,66.6019,-13.86,98,100,0.83,RU,1741124217
512,phan rang-thap cham,11.5667,108.9833,22.85,89,100,1.33,VN,1741124218
513,kayangel,8.0823,134.7173,28.22,80,100,8.32,PW,1741124220
514,deming,32.2687,-107.7586,15.94,20,100,11.83,US,1741124106
515,merizo village,13.2658,144.6691,25.32,91,40,8.72,GU,1741124222
516,paraipaba,-3.4394,-39.1483,23.7,95,100,1.94,BR,1741124223
517,revda,56.801,59.9303,-11.83,97,92,1.77,RU,1741124224
518,filadelfia,39.9523,-75.1638,16.12,37,0,4.12,US,1741123972
519,pisco,-13.7,-76.2167,25.03,69,0,10.29,PE,1741124227
520,chornomors'k,46.305,30.6548,4.89,71,4,5.33,UA,1741124228
521,namie,37.4833,141.0,6.26,96,100,5.05,JP,1741124229
522,newman,37.3138,-121.0208,16.7,62,97,1.34,US,1741124153
523,callao,-12.0667,-77.15,24.16,73,0,5.66,PE,1741124006
524,vicksburg,32.3526,-90.8779,13.85,96,75,2.68,US,1741124233
525,ulanhot,46.0833,122.0833,-5.07,34,100,1.32,CN,1741124234
526,manismata,-2.4667,111.0333,22.81,99,88,0.01,ID,1741124235
527,quellon,-43.1167,-73.6167,14.57,62,100,2.56,CL,1741124029
528,kaa-khem,51.6833,94.7333,-17.04,91,100,1.76,RU,1741124238
529,tanjung pandan,-2.75,107.65,24.58,89,98,0.39,ID,1741124239
530,mayfield,36.7417,-88.6367,16.18,67,100,6.17,US,1741124240
531,arkadak,51.9326,43.4978,0.33,98,100,5.9,RU,1741124242
532,lorengau,-2.0226,147.2712,28.73,77,100,5.55,PG,1741124243
533,griffith,41.5284,-87.4237,6.97,23,100,3.09,US,1741124244
534,caleta de carquin,-11.0925,-77.6267,25.02,74,95,5.13,PE,1741124245
535,rio san juan,19.6439,-70.0763,25.55,73,4,4.98,DO,1741124246
536,tazacorte,28.629,-17.9293,15.54,84,20,4.63,ES,1741124248
537,margate,51.3813,1.3862,5.94,86,0,3.49,GB,1741124249
538,rivera,-30.9053,-55.5508,37.39,99,8,2.55,UY,1741124250
539,reo,12.3167,-2.4667,31.99,15,15,3.57,BF,1741124251
540,jaleshwar,26.6471,85.8008,16.26,38,0,3.84,NP,1741124252
541,luanda,-8.8368,13.2343,27.0,89,75,3.6,AO,1741124254
542,sandnessjoen,66.0217,12.6316,4.06,75,75,11.32,NO,1741124255
543,adi keyh,14.8444,39.3772,17.08,47,75,2.65,ER,1741124256
544,tomatlan,19.9333,-105.25,35.65,19,3,4.53,MX,1741124257
545,qujing,25.4833,103.7833,7.99,66,0,2.6,CN,1741124258
546,ceres,37.5949,-120.9577,15.97,55,20,0.0,US,1741124261
547,natal,-5.795,-35.2094,28.12,78,0,5.14,BR,1741124262
548,nyagan,62.1406,65.3936,-9.53,97,100,2.4,RU,1741124263
549,puerto baquerizo moreno,-0.9,-89.6,29.55,70,40,3.6,EC,1741124265
550,maun,-19.9833,23.4167,24.16,67,88,1.72,BW,1741124266
551,opuwo,-18.0607,13.84,21.77,67,96,1.36,NA,1741124267
552,mao,39.8885,4.2658,13.31,94,20,6.17,ES,1741124268
553,kiffa,16.6166,-11.4045,26.3,20,65,5.58,MR,1741124269
554,chebarkul',54.9749,60.3633,-8.02,98,93,1.61,RU,1741124271
555,teguise,29.0605,-13.564,15.12,67,20,3.09,ES,1741124272
556,hengchun,22.0042,120.7439,21.75,85,14,10.11,TW,1741124273
557,kapshagay,43.8833,77.0833,-4.35,69,28,2.83,KZ,1741124274
558,piacabucu,-10.4056,-36.4344,26.07,78,14,3.54,BR,1741124276
559,jiazi,22.8779,116.067,18.06,86,100,8.29,CN,1741124278
560,minas de marcona,-15.2119,-75.1103,20.45,67,2,8.55,PE,1741124280
561,palmerston north,-40.35,175.6167,15.55,63,50,1.34,NZ,1741124281
562,yemetsk,63.4721,41.7941,-1.73,98,100,2.16,RU,1741124282
563,vera cruz,-12.6333,-41.0333,25.46,55,98,4.94,BR,1741124283
564,berezovyy,51.6667,135.7,-18.73,92,15,2.22,RU,1741124285
565,neftcala,39.3742,49.2472,6.12,76,72,3.79,AZ,1741124286
566,sooke,48.3746,-123.7276,9.25,93,100,0.8,CA,1741124287
